Time,PlatformId,"Location (Lat, Long, Alt)","Orientation (Heading, Pitch, Roll)",Speed (m/s),FuelReserve,FuelBingo,FuelQuantity,FuelInitial,Name,Side,Domain
0,1,"[-27.358333,153.07639,304.79999]","[3.7699113,0.0,0.0]",61.73333359,0,4082.33137,11521.24631,11521.24631,red1,red,2
0,2,"[-27.188889,153.07389,304.79999]","[3.1415927,0.0,0.0]",61.73333359,0,4082.33137,11521.24631,11521.24631,red2,red,2
0,3,"[-27.462778,152.92083,304.79999]","[3.1415927,0.0,0.0]",61.73333359,0,4082.33137,11521.24631,11521.24631,red3,red,2
0,4,"[-27.479167,152.73306,304.79999]","[2.146755,0.0,0.0]",61.73333359,0,4082.33137,11521.24631,11521.24631,red4,red,2
0,5,"[-27.432778,152.77944,304.79999]","[2.146755,0.0,0.0]",61.73333359,0,4082.33137,11521.24631,11521.24631,red5,red,2
0,6,"[-27.510278,153.12417,304.79999]","[4.4156828,0.0,0.0]",61.73333359,0,4082.33137,11521.24631,11521.24631,red6,red,2
0,7,"[-27.727778,152.89167,304.79999]","[0.0,0.0,0.0]",61.73333359,0,2267.961872,7711.070366,7711.070366,blue1,blue,2
0,8,"[-27.551111,152.675,304.79999]","[1.3089969,0.0,0.0]",61.73333359,0,2267.961872,7711.070366,7711.070366,blue2,blue,2
1,1,"[-27.358776,153.07603,304.79999]","[-2.5112543,0.0,0.0]",61.73333359,0,4082.33137,11519.97072,11521.24631,red1,red,2
1,2,"[-27.189425,153.07383,304.79999]","[-3.0289266,0.0,0.0]",61.73333359,0,4082.33137,11519.99234,11521.24631,red2,red,2
1,3,"[-27.463316,152.9208,304.79999]","[-3.0862835,0.0,0.0]",61.73333359,0,4082.33137,11519.99234,11521.24631,red3,red,2
1,4,"[-27.479424,152.73361,304.79999]","[2.0449773,0.0,0.0]",61.73333359,0,4082.33137,11519.9491,11521.24631,red4,red,2
1,5,"[-27.43303,152.78,304.79999]","[2.0335077,0.0,0.0]",61.73333359,0,4082.33137,11519.9491,11521.24631,red5,red,2
1,6,"[-27.510413,153.12356,304.79999]","[-1.8134326,0.0,0.0]",61.73333359,0,4082.33137,11519.9491,11521.24631,red6,red,2
1,7,"[-27.727248,152.89167,304.79999]","[-2.7755681e-17,0.0,0.0]",61.73333359,0,2267.961872,7710.36537,7711.070366,blue1,blue,2
1,8,"[-27.550974,152.67557,304.79999]","[1.3089942,0.0,0.0]",61.73333359,0,2267.961872,7710.36537,7711.070366,blue2,blue,2
2,1,"[-27.359227,153.07566,304.79999]","[-2.5112514,0.0,0.0]",61.73333359,0,4082.33137,11518.67351,11521.24631,red1,red,2
2,2,"[-27.189979,153.07376,304.79999]","[-3.028926,0.0,0.0]",61.73333359,0,4082.33137,11518.69513,11521.24631,red2,red,2
2,3,"[-27.463873,152.92077,304.79999]","[-3.0862832,0.0,0.0]",61.73333359,0,4082.33137,11518.69513,11521.24631,red3,red,2
2,4,"[-27.479679,152.73417,304.79999]","[2.0449728,0.0,0.0]",61.73333359,0,4082.33137,11518.65189,11521.24631,red4,red,2
2,5,"[-27.433279,152.78056,304.79999]","[2.0335032,0.0,0.0]",61.73333359,0,4082.33137,11518.65189,11521.24631,red5,red,2
2,6,"[-27.510547,153.12295,304.79999]","[-1.8134277,0.0,0.0]",61.73333359,0,4082.33137,11518.65189,11521.24631,red6,red,2
2,7,"[-27.726664,152.89167,304.79999]","[-2.7755681e-17,0.0,0.0]",61.73333359,0,2267.961872,7709.587571,7711.070366,blue1,blue,2
2,8,"[-27.550823,152.67621,304.79999]","[1.3089891,0.0,0.0]",61.73333359,0,2267.961872,7709.587571,7711.070366,blue2,blue,2
3,1,"[-27.359677,153.07529,304.79999]","[-2.5112484,0.0,0.0]",61.73333359,0,4082.33137,11517.37629,11521.24631,red1,red,2
3,2,"[-27.190533,153.07369,304.79999]","[-3.0289255,0.0,0.0]",61.73333359,0,4082.33137,11517.39792,11521.24631,red2,red,2
3,3,"[-27.46443,152.92073,304.79999]","[-3.0862829,0.0,0.0]",61.73333359,0,4082.33137,11517.39792,11521.24631,red3,red,2
3,4,"[-27.479933,152.73472,304.79999]","[2.0449684,0.0,0.0]",61.73333359,0,4082.33137,11517.35467,11521.24631,red4,red,2
3,5,"[-27.433528,152.78112,304.79999]","[2.0334987,0.0,0.0]",61.73333359,0,4082.33137,11517.35467,11521.24631,red5,red,2
3,6,"[-27.510681,153.12235,304.79999]","[-1.8134229,0.0,0.0]",61.73333359,0,4082.33137,11517.35467,11521.24631,red6,red,2
3,7,"[-27.726106,152.89167,304.79999]","[0.0,0.0,0.0]",61.73333359,0,2267.961872,7708.845469,7711.070366,blue1,blue,2
3,8,"[-27.550678,152.67681,304.79999]","[1.3089843,0.0,0.0]",61.73333359,0,2267.961872,7708.845469,7711.070366,blue2,blue,2
4,1,"[-27.360128,153.07492,304.79999]","[-2.5112455,0.0,0.0]",61.73333359,0,4082.33137,11516.07908,11521.24631,red1,red,2
4,2,"[-27.191087,153.07361,304.79999]","[-3.0289249,0.0,0.0]",61.73333359,0,4082.33137,11516.1007,11521.24631,red2,red,2
4,3,"[-27.464987,152.9207,304.79999]","[-3.0862826,0.0,0.0]",61.73333359,0,4082.33137,11516.1007,11521.24631,red3,red,2
4,4,"[-27.480188,152.73528,304.79999]","[2.0449639,0.0,0.0]",61.73333359,0,4082.33137,11516.05746,11521.24631,red4,red,2
4,5,"[-27.433777,152.78168,304.79999]","[2.0334942,0.0,0.0]",61.73333359,0,4082.33137,11516.05746,11521.24631,red5,red,2
4,6,"[-27.510815,153.12174,304.79999]","[-1.813418,0.0,0.0]",61.73333359,0,4082.33137,11516.05746,11521.24631,red6,red,2
4,7,"[-27.725548,152.89167,304.79999]","[0.0,0.0,0.0]",61.73333359,0,2267.961872,7708.103367,7711.070366,blue1,blue,2
4,8,"[-27.550534,152.67742,304.79999]","[1.3089794,0.0,0.0]",61.73333359,0,2267.961872,7708.103367,7711.070366,blue2,blue,2
5,1,"[-27.360578,153.07455,304.79999]","[-2.5112426,0.0,0.0]",61.73333359,0,4082.33137,11514.78187,11521.24631,red1,red,2
5,2,"[-27.191642,153.07354,304.79999]","[-3.0289244,0.0,0.0]",61.73333359,0,4082.33137,11514.80349,11521.24631,red2,red,2
5,3,"[-27.465543,152.92066,304.79999]","[-3.0862824,0.0,0.0]",61.73333359,0,4082.33137,11514.80349,11521.24631,red3,red,2
5,4,"[-27.480443,152.73584,304.79999]","[2.0449595,0.0,0.0]",61.73333359,0,4082.33137,11514.76025,11521.24631,red4,red,2
5,5,"[-27.434026,152.78224,304.79999]","[2.0334898,0.0,0.0]",61.73333359,0,4082.33137,11514.76025,11521.24631,red5,red,2
5,6,"[-27.510949,153.12113,304.79999]","[-1.8134131,0.0,0.0]",61.73333359,0,4082.33137,11514.76025,11521.24631,red6,red,2
5,7,"[-27.724991,152.89167,304.79999]","[-5.5511363e-17,0.0,0.0]",61.73333359,0,2267.961872,7707.361265,7711.070366,blue1,blue,2
5,8,"[-27.55039,152.67802,304.79999]","[1.3089745,0.0,0.0]",61.73333359,0,2267.961872,7707.361265,7711.070366,blue2,blue,2
6,1,"[-27.361029,153.07419,304.79999]","[-2.5112396,0.0,0.0]",61.73333359,0,4082.33137,11513.48466,11521.24631,red1,red,2
6,2,"[-27.192196,153.07347,304.79999]","[-3.0289238,0.0,0.0]",61.73333359,0,4082.33137,11513.50628,11521.24631,red2,red,2
6,3,"[-27.4661,152.92063,304.79999]","[-3.0862821,0.0,0.0]",61.73333359,0,4082.33137,11513.50628,11521.24631,red3,red,2
6,4,"[-27.480697,152.73639,304.79999]","[2.044955,0.0,0.0]",61.73333359,0,4082.33137,11513.46304,11521.24631,red4,red,2
6,5,"[-27.434275,152.7828,304.79999]","[2.0334853,0.0,0.0]",61.73333359,0,4082.33137,11513.46304,11521.24631,red5,red,2
6,6,"[-27.511083,153.12052,304.79999]","[-1.8134082,0.0,0.0]",61.73333359,0,4082.33137,11513.46304,11521.24631,red6,red,2
6,7,"[-27.724433,152.89167,304.79999]","[0.0,0.0,0.0]",61.73333359,0,2267.961872,7706.619164,7711.070366,blue1,blue,2
6,8,"[-27.550245,152.67863,304.79999]","[1.3089697,0.0,0.0]",61.73333359,0,2267.961872,7706.619164,7711.070366,blue2,blue,2
7,1,"[-27.361479,153.07382,304.79999]","[-2.5112367,0.0,0.0]",61.73333359,0,4082.33137,11512.18745,11521.24631,red1,red,2
7,2,"[-27.19275,153.0734,304.79999]","[-3.0289232,0.0,0.0]",61.73333359,0,4082.33137,11512.20907,11521.24631,red2,red,2
7,3,"[-27.466657,152.92059,304.79999]","[-3.0862818,0.0,0.0]",61.73333359,0,4082.33137,11512.20907,11521.24631,red3,red,2
7,4,"[-27.480952,152.73695,304.79999]","[2.0449505,0.0,0.0]",61.73333359,0,4082.33137,11512.16582,11521.24631,red4,red,2
7,5,"[-27.434524,152.78336,304.79999]","[2.0334808,0.0,0.0]",61.73333359,0,4082.33137,11512.16582,11521.24631,red5,red,2
7,6,"[-27.511216,153.11992,304.79999]","[-1.8134034,0.0,0.0]",61.73333359,0,4082.33137,11512.16582,11521.24631,red6,red,2
7,7,"[-27.723875,152.89167,304.79999]","[0.0,0.0,0.0]",61.73333359,0,2267.961872,7705.877062,7711.070366,blue1,blue,2
7,8,"[-27.550101,152.67923,304.79999]","[1.3089648,0.0,0.0]",61.73333359,0,2267.961872,7705.877062,7711.070366,blue2,blue,2
8,1,"[-27.36193,153.07345,304.79999]","[-2.5112338,0.0,0.0]",61.73333359,0,4082.33137,11510.89023,11521.24631,red1,red,2
8,2,"[-27.193304,153.07333,304.79999]","[-3.0289227,0.0,0.0]",61.73333359,0,4082.33137,11510.91185,11521.24631,red2,red,2
8,3,"[-27.467214,152.92056,304.79999]","[-3.0862815,0.0,0.0]",61.73333359,0,4082.33137,11510.91185,11521.24631,red3,red,2
8,4,"[-27.481206,152.7375,304.79999]","[2.0449461,0.0,0.0]",61.73333359,0,4082.33137,11510.86861,11521.24631,red4,red,2
8,5,"[-27.434773,152.78392,304.79999]","[2.0334763,0.0,0.0]",61.73333359,0,4082.33137,11510.86861,11521.24631,red5,red,2
8,6,"[-27.51135,153.11931,304.79999]","[-1.8133985,0.0,0.0]",61.73333359,0,4082.33137,11510.86861,11521.24631,red6,red,2
8,7,"[-27.723318,152.89167,304.79999]","[2.7755681e-17,0.0,0.0]",61.73333359,0,2267.961872,7705.13496,7711.070366,blue1,blue,2
8,8,"[-27.549957,152.67983,304.79999]","[1.30896,0.0,0.0]",61.73333359,0,2267.961872,7705.13496,7711.070366,blue2,blue,2
9,1,"[-27.36238,153.07308,304.79999]","[-2.5112308,0.0,0.0]",61.73333359,0,4082.33137,11509.59302,11521.24631,red1,red,2
9,2,"[-27.193858,153.07326,304.79999]","[-3.0289221,0.0,0.0]",61.73333359,0,4082.33137,11509.61464,11521.24631,red2,red,2
9,3,"[-27.467771,152.92052,304.79999]","[-3.0862813,0.0,0.0]",61.73333359,0,4082.33137,11509.61464,11521.24631,red3,red,2
9,4,"[-27.481461,152.73806,304.79999]","[2.0449416,0.0,0.0]",61.73333359,0,4082.33137,11509.5714,11521.24631,red4,red,2
9,5,"[-27.435021,152.78448,304.79999]","[2.0334719,0.0,0.0]",61.73333359,0,4082.33137,11509.5714,11521.24631,red5,red,2
9,6,"[-27.511484,153.1187,304.79999]","[-1.8133936,0.0,0.0]",61.73333359,0,4082.33137,11509.5714,11521.24631,red6,red,2
9,7,"[-27.722787,152.89167,304.79999]","[-2.7755681e-17,0.0,0.0]",61.73333359,0,2267.961872,7704.428555,7711.070366,blue1,blue,2
9,8,"[-27.549819,152.68041,304.79999]","[1.3089554,0.0,0.0]",61.73333359,0,2267.961872,7704.428555,7711.070366,blue2,blue,2
10,1,"[-27.362831,153.07271,304.79999]","[-2.5112279,0.0,0.0]",61.73333359,0,4082.33137,11508.29581,11521.24631,red1,red,2
10,2,"[-27.194412,153.07319,304.79999]","[-3.0289216,0.0,0.0]",61.73333359,0,4082.33137,11508.31743,11521.24631,red2,red,2
10,3,"[-27.468328,152.92049,304.79999]","[-3.086281,0.0,0.0]",61.73333359,0,4082.33137,11508.31743,11521.24631,red3,red,2
10,4,"[-27.481716,152.73862,304.79999]","[2.0449372,0.0,0.0]",61.73333359,0,4082.33137,11508.27419,11521.24631,red4,red,2
10,5,"[-27.43527,152.78504,304.79999]","[2.0334674,0.0,0.0]",61.73333359,0,4082.33137,11508.27419,11521.24631,red5,red,2
10,6,"[-27.511618,153.1181,304.79999]","[-1.8133888,0.0,0.0]",61.73333359,0,4082.33137,11508.27419,11521.24631,red6,red,2
10,7,"[-27.722229,152.89167,304.79999]","[-2.7755681e-17,0.0,0.0]",61.73333359,0,2267.961872,7703.686453,7711.070366,blue1,blue,2
10,8,"[-27.549675,152.68101,304.79999]","[1.3089505,0.0,0.0]",61.73333359,0,2267.961872,7703.686453,7711.070366,blue2,blue,2
11,1,"[-27.363281,153.07235,304.79999]","[-2.5112249,0.0,0.0]",61.73333359,0,4082.33137,11506.9986,11521.24631,red1,red,2
11,2,"[-27.194967,153.07312,304.79999]","[-3.028921,0.0,0.0]",61.73333359,0,4082.33137,11507.02022,11521.24631,red2,red,2
11,3,"[-27.468884,152.92046,304.79999]","[-3.0862807,0.0,0.0]",61.73333359,0,4082.33137,11507.02022,11521.24631,red3,red,2
11,4,"[-27.48197,152.73917,304.79999]","[2.0449327,0.0,0.0]",61.73333359,0,4082.33137,11506.97697,11521.24631,red4,red,2
11,5,"[-27.435519,152.78559,304.79999]","[2.0334629,0.0,0.0]",61.73333359,0,4082.33137,11506.97697,11521.24631,red5,red,2
11,6,"[-27.511752,153.11749,304.79999]","[-1.8133839,0.0,0.0]",61.73333359,0,4082.33137,11506.97697,11521.24631,red6,red,2
11,7,"[-27.721671,152.89167,304.79999]","[-5.5511363e-17,0.0,0.0]",61.73333359,0,2267.961872,7702.944352,7711.070366,blue1,blue,2
11,8,"[-27.54953,152.68162,304.79999]","[1.3089457,0.0,0.0]",61.73333359,0,2267.961872,7702.944352,7711.070366,blue2,blue,2
12,1,"[-27.363732,153.07198,304.79999]","[-2.511222,0.0,0.0]",61.73333359,0,4082.33137,11505.70138,11521.24631,red1,red,2
12,2,"[-27.195521,153.07305,304.79999]","[-3.0289205,0.0,0.0]",61.73333359,0,4082.33137,11505.723,11521.24631,red2,red,2
12,3,"[-27.469441,152.92042,304.79999]","[-3.0862804,0.0,0.0]",61.73333359,0,4082.33137,11505.723,11521.24631,red3,red,2
12,4,"[-27.482225,152.73973,304.79999]","[2.0449283,0.0,0.0]",61.73333359,0,4082.33137,11505.67976,11521.24631,red4,red,2
12,5,"[-27.435768,152.78615,304.79999]","[2.0334584,0.0,0.0]",61.73333359,0,4082.33137,11505.67976,11521.24631,red5,red,2
12,6,"[-27.511886,153.11688,304.79999]","[-1.813379,0.0,0.0]",61.73333359,0,4082.33137,11505.67976,11521.24631,red6,red,2
12,7,"[-27.721114,152.89167,304.79999]","[0.0,0.0,0.0]",61.73333359,0,2267.961872,7702.20225,7711.070366,blue1,blue,2
12,8,"[-27.549386,152.68222,304.79999]","[1.3089408,0.0,0.0]",61.73333359,0,2267.961872,7702.20225,7711.070366,blue2,blue,2
13,1,"[-27.364183,153.07161,304.79999]","[-2.5112191,0.0,0.0]",61.73333359,0,4082.33137,11504.40417,11521.24631,red1,red,2
13,2,"[-27.196075,153.07298,304.79999]","[-3.0289199,0.0,0.0]",61.73333359,0,4082.33137,11504.42579,11521.24631,red2,red,2
13,3,"[-27.469998,152.92039,304.79999]","[-3.0862802,0.0,0.0]",61.73333359,0,4082.33137,11504.42579,11521.24631,red3,red,2
13,4,"[-27.48248,152.74029,304.79999]","[2.0449238,0.0,0.0]",61.73333359,0,4082.33137,11504.38255,11521.24631,red4,red,2
13,5,"[-27.436017,152.78671,304.79999]","[2.033454,0.0,0.0]",61.73333359,0,4082.33137,11504.38255,11521.24631,red5,red,2
13,6,"[-27.51202,153.11627,304.79999]","[-1.8133742,0.0,0.0]",61.73333359,0,4082.33137,11504.38255,11521.24631,red6,red,2
13,7,"[-27.720556,152.89167,304.79999]","[0.0,0.0,0.0]",61.73333359,0,2267.961872,7701.460148,7711.070366,blue1,blue,2
13,8,"[-27.549242,152.68283,304.79999]","[1.308936,0.0,0.0]",61.73333359,0,2267.961872,7701.460148,7711.070366,blue2,blue,2
14,1,"[-27.364633,153.07124,304.79999]","[-2.5112161,0.0,0.0]",61.73333359,0,4082.33137,11503.10696,11521.24631,red1,red,2
14,2,"[-27.196629,153.07291,304.79999]","[-3.0289194,0.0,0.0]",61.73333359,0,4082.33137,11503.12858,11521.24631,red2,red,2
14,3,"[-27.470555,152.92035,304.79999]","[-3.0862799,0.0,0.0]",61.73333359,0,4082.33137,11503.12858,11521.24631,red3,red,2
14,4,"[-27.482734,152.74084,304.79999]","[2.0449193,0.0,0.0]",61.73333359,0,4082.33137,11503.08534,11521.24631,red4,red,2
14,5,"[-27.436266,152.78727,304.79999]","[2.0334495,0.0,0.0]",61.73333359,0,4082.33137,11503.08534,11521.24631,red5,red,2
14,6,"[-27.512154,153.11567,304.79999]","[-1.8133693,0.0,0.0]",61.73333359,0,4082.33137,11503.08534,11521.24631,red6,red,2
14,7,"[-27.719999,152.89167,304.79999]","[0.0,0.0,0.0]",61.73333359,0,2267.961872,7700.718046,7711.070366,blue1,blue,2
14,8,"[-27.549097,152.68343,304.79999]","[1.3089311,0.0,0.0]",61.73333359,0,2267.961872,7700.718046,7711.070366,blue2,blue,2
15,1,"[-27.365084,153.07087,304.79999]","[-2.5112132,0.0,0.0]",61.73333359,0,4082.33137,11501.80975,11521.24631,red1,red,2
15,2,"[-27.197183,153.07284,304.79999]","[-3.0289188,0.0,0.0]",61.73333359,0,4082.33137,11501.83137,11521.24631,red2,red,2
15,3,"[-27.471112,152.92032,304.79999]","[-3.0862796,0.0,0.0]",61.73333359,0,4082.33137,11501.83137,11521.24631,red3,red,2
15,4,"[-27.482989,152.7414,304.79999]","[2.0449149,0.0,0.0]",61.73333359,0,4082.33137,11501.78812,11521.24631,red4,red,2
15,5,"[-27.436515,152.78783,304.79999]","[2.033445,0.0,0.0]",61.73333359,0,4082.33137,11501.78812,11521.24631,red5,red,2
15,6,"[-27.512288,153.11506,304.79999]","[-1.8133644,0.0,0.0]",61.73333359,0,4082.33137,11501.78812,11521.24631,red6,red,2
15,7,"[-27.719441,152.89167,304.79999]","[-2.7755681e-17,0.0,0.0]",61.73333359,0,2267.961872,7699.975944,7711.070366,blue1,blue,2
15,8,"[-27.548953,152.68404,304.79999]","[1.3089263,0.0,0.0]",61.73333359,0,2267.961872,7699.975944,7711.070366,blue2,blue,2
16,1,"[-27.365534,153.0705,304.79999]","[-2.5112103,0.0,0.0]",61.73333359,0,4082.33137,11500.51253,11521.24631,red1,red,2
16,2,"[-27.197737,153.07277,304.79999]","[-3.0289182,0.0,0.0]",61.73333359,0,4082.33137,11500.53415,11521.24631,red2,red,2
16,3,"[-27.471668,152.92028,304.79999]","[-3.0862793,0.0,0.0]",61.73333359,0,4082.33137,11500.53415,11521.24631,red3,red,2
16,4,"[-27.483243,152.74195,304.79999]","[2.0449104,0.0,0.0]",61.73333359,0,4082.33137,11500.49091,11521.24631,red4,red,2
16,5,"[-27.436764,152.78839,304.79999]","[2.0334405,0.0,0.0]",61.73333359,0,4082.33137,11500.49091,11521.24631,red5,red,2
16,6,"[-27.512422,153.11445,304.79999]","[-1.8133596,0.0,0.0]",61.73333359,0,4082.33137,11500.49091,11521.24631,red6,red,2
16,7,"[-27.718883,152.89167,304.79999]","[-2.7755681e-17,0.0,0.0]",61.73333359,0,2267.961872,7699.233843,7711.070366,blue1,blue,2
16,8,"[-27.548809,152.68464,304.79999]","[1.3089214,0.0,0.0]",61.73333359,0,2267.961872,7699.233843,7711.070366,blue2,blue,2
17,1,"[-27.365985,153.07014,304.79999]","[-2.5112073,0.0,0.0]",61.73333359,0,4082.33137,11499.21532,11521.24631,red1,red,2
17,2,"[-27.198292,153.0727,304.79999]","[-3.0289177,0.0,0.0]",61.73333359,0,4082.33137,11499.23694,11521.24631,red2,red,2
17,3,"[-27.472225,152.92025,304.79999]","[-3.086279,0.0,0.0]",61.73333359,0,4082.33137,11499.23694,11521.24631,red3,red,2
17,4,"[-27.483498,152.74251,304.79999]","[2.044906,0.0,0.0]",61.73333359,0,4082.33137,11499.1937,11521.24631,red4,red,2
17,5,"[-27.437013,152.78895,304.79999]","[2.0334361,0.0,0.0]",61.73333359,0,4082.33137,11499.1937,11521.24631,red5,red,2
17,6,"[-27.512556,153.11385,304.79999]","[-1.8133547,0.0,0.0]",61.73333359,0,4082.33137,11499.1937,11521.24631,red6,red,2
17,7,"[-27.718326,152.89167,304.79999]","[-5.5511363e-17,0.0,0.0]",61.73333359,0,2267.961872,7698.491741,7711.070366,blue1,blue,2
17,8,"[-27.548661,152.68526,304.79999]","[1.3089164,0.0,0.0]",61.73333359,0,2267.961872,7698.473021,7711.070366,blue2,blue,2
18,1,"[-27.366435,153.06977,304.79999]","[-2.5112044,0.0,0.0]",61.73333359,0,4082.33137,11497.91811,11521.24631,red1,red,2
18,2,"[-27.198846,153.07263,304.79999]","[-3.0289171,0.0,0.0]",61.73333359,0,4082.33137,11497.93973,11521.24631,red2,red,2
18,3,"[-27.472782,152.92021,304.79999]","[-3.0862788,0.0,0.0]",61.73333359,0,4082.33137,11497.93973,11521.24631,red3,red,2
18,4,"[-27.483753,152.74307,304.79999]","[2.0449015,0.0,0.0]",61.73333359,0,4082.33137,11497.89649,11521.24631,red4,red,2
18,5,"[-27.437262,152.78951,304.79999]","[2.0334316,0.0,0.0]",61.73333359,0,4082.33137,11497.89649,11521.24631,red5,red,2
18,6,"[-27.51269,153.11324,304.79999]","[-1.8133498,0.0,0.0]",61.73333359,0,4082.33137,11497.89649,11521.24631,red6,red,2
18,7,"[-27.717768,152.89167,304.79999]","[-5.5511363e-17,0.0,0.0]",61.73333359,0,2267.961872,7697.749639,7711.070366,blue1,blue,2
18,8,"[-27.548513,152.68588,304.79999]","[1.3089115,0.0,0.0]",61.73333359,0,2267.961872,7697.712534,7711.070366,blue2,blue,2
19,1,"[-27.366886,153.0694,304.79999]","[-2.5112014,0.0,0.0]",61.73333359,0,4082.33137,11496.6209,11521.24631,red1,red,2
19,2,"[-27.1994,153.07256,304.79999]","[-3.0289166,0.0,0.0]",61.73333359,0,4082.33137,11496.64252,11521.24631,red2,red,2
19,3,"[-27.473339,152.92018,304.79999]","[-3.0862785,0.0,0.0]",61.73333359,0,4082.33137,11496.64252,11521.24631,red3,red,2
19,4,"[-27.484007,152.74362,304.79999]","[2.0448971,0.0,0.0]",61.73333359,0,4082.33137,11496.59928,11521.24631,red4,red,2
19,5,"[-27.437511,152.79007,304.79999]","[2.0334271,0.0,0.0]",61.73333359,0,4082.33137,11496.59928,11521.24631,red5,red,2
19,6,"[-27.512824,153.11263,304.79999]","[-1.8133449,0.0,0.0]",61.73333359,0,4082.33137,11496.59928,11521.24631,red6,red,2
19,7,"[-27.71721,152.89167,304.79999]","[-2.7755681e-17,0.0,0.0]",61.73333359,0,2267.961872,7697.007537,7711.070366,blue1,blue,2
19,8,"[-27.548373,152.68646,304.79999]","[1.3089068,0.0,0.0]",61.73333359,0,2267.961872,7696.995169,7711.070366,blue2,blue,2
20,1,"[-27.367336,153.06903,304.79999]","[-2.5111985,0.0,0.0]",61.73333359,0,4082.33137,11495.32368,11521.24631,red1,red,2
20,2,"[-27.199954,153.07249,304.79999]","[-3.028916,0.0,0.0]",61.73333359,0,4082.33137,11495.3453,11521.24631,red2,red,2
20,3,"[-27.473896,152.92014,304.79999]","[-3.0862782,0.0,0.0]",61.73333359,0,4082.33137,11495.3453,11521.24631,red3,red,2
20,4,"[-27.484262,152.74418,304.79999]","[2.0448926,0.0,0.0]",61.73333359,0,4082.33137,11495.30206,11521.24631,red4,red,2
20,5,"[-27.437759,152.79063,304.79999]","[2.0334227,0.0,0.0]",61.73333359,0,4082.33137,11495.30206,11521.24631,red5,red,2
20,6,"[-27.512958,153.11202,304.79999]","[-1.8133401,0.0,0.0]",61.73333359,0,4082.33137,11495.30206,11521.24631,red6,red,2
20,7,"[-27.716653,152.89167,304.79999]","[-2.7755681e-17,0.0,0.0]",61.73333359,0,2267.961872,7696.265435,7711.070366,blue1,blue,2
20,8,"[-27.548226,152.68708,304.79999]","[1.3089018,0.0,0.0]",61.73333359,0,2267.961872,7696.240699,7711.070366,blue2,blue,2
21,1,"[-27.367787,153.06866,304.79999]","[-2.5111956,0.0,0.0]",61.73333359,0,4082.33137,11494.02647,11521.24631,red1,red,2
21,2,"[-27.200508,153.07242,304.79999]","[-3.0289155,0.0,0.0]",61.73333359,0,4082.33137,11494.04809,11521.24631,red2,red,2
21,3,"[-27.474453,152.92011,304.79999]","[-3.0862779,0.0,0.0]",61.73333359,0,4082.33137,11494.04809,11521.24631,red3,red,2
21,4,"[-27.484516,152.74474,304.79999]","[2.0448881,0.0,0.0]",61.73333359,0,4082.33137,11494.00485,11521.24631,red4,red,2
21,5,"[-27.438008,152.79119,304.79999]","[2.0334182,0.0,0.0]",61.73333359,0,4082.33137,11494.00485,11521.24631,red5,red,2
21,6,"[-27.513092,153.11142,304.79999]","[-1.8133352,0.0,0.0]",61.73333359,0,4082.33137,11494.00485,11521.24631,red6,red,2
21,7,"[-27.716095,152.89167,304.79999]","[-2.7755681e-17,0.0,0.0]",61.73333359,0,2267.961872,7695.523333,7711.070366,blue1,blue,2
21,8,"[-27.548084,152.68767,304.79999]","[1.3088971,0.0,0.0]",61.73333359,0,2267.961872,7695.510965,7711.070366,blue2,blue,2
22,1,"[-27.368237,153.06829,304.79999]","[-2.5111926,0.0,0.0]",61.73333359,0,4082.33137,11492.72926,11521.24631,red1,red,2
22,2,"[-27.201063,153.07235,304.79999]","[-3.0289149,0.0,0.0]",61.73333359,0,4082.33137,11492.75088,11521.24631,red2,red,2
22,3,"[-27.475009,152.92008,304.79999]","[-3.0862777,0.0,0.0]",61.73333359,0,4082.33137,11492.75088,11521.24631,red3,red,2
22,4,"[-27.484771,152.74529,304.79999]","[2.0448837,0.0,0.0]",61.73333359,0,4082.33137,11492.70764,11521.24631,red4,red,2
22,5,"[-27.438257,152.79175,304.79999]","[2.0334137,0.0,0.0]",61.73333359,0,4082.33137,11492.70764,11521.24631,red5,red,2
22,6,"[-27.513226,153.11081,304.79999]","[-1.8133303,0.0,0.0]",61.73333359,0,4082.33137,11492.70764,11521.24631,red6,red,2
22,7,"[-27.715537,152.89167,304.79999]","[-2.7755681e-17,0.0,0.0]",61.73333359,0,2267.961872,7694.781232,7711.070366,blue1,blue,2
22,8,"[-27.547938,152.68829,304.79999]","[1.3088921,0.0,0.0]",61.73333359,0,2267.961872,7694.756495,7711.070366,blue2,blue,2
23,1,"[-27.368688,153.06793,304.79999]","[-2.5111897,0.0,0.0]",61.73333359,0,4082.33137,11491.43205,11521.24631,red1,red,2
23,2,"[-27.201617,153.07228,304.79999]","[-3.0289143,0.0,0.0]",61.73333359,0,4082.33137,11491.45367,11521.24631,red2,red,2
23,3,"[-27.475566,152.92004,304.79999]","[-3.0862774,0.0,0.0]",61.73333359,0,4082.33137,11491.45367,11521.24631,red3,red,2
23,4,"[-27.485026,152.74585,304.79999]","[2.0448792,0.0,0.0]",61.73333359,0,4082.33137,11491.41043,11521.24631,red4,red,2
23,5,"[-27.438506,152.79231,304.79999]","[2.0334092,0.0,0.0]",61.73333359,0,4082.33137,11491.41043,11521.24631,red5,red,2
23,6,"[-27.51336,153.1102,304.79999]","[-1.8133255,0.0,0.0]",61.73333359,0,4082.33137,11491.41043,11521.24631,red6,red,2
23,7,"[-27.714952,152.89167,304.79999]","[0.0,0.0,0.0]",61.73333359,0,2267.961872,7694.002025,7711.070366,blue1,blue,2
23,8,"[-27.547796,152.68888,304.79999]","[1.3088874,0.0,0.0]",61.73333359,0,2267.961872,7694.026762,7711.070366,blue2,blue,2
24,1,"[-27.369138,153.06756,304.79999]","[-2.5111867,0.0,0.0]",61.73333359,0,4082.33137,11490.13483,11521.24631,red1,red,2
24,2,"[-27.202171,153.07221,304.79999]","[-3.0289138,0.0,0.0]",61.73333359,0,4082.33137,11490.15645,11521.24631,red2,red,2
24,3,"[-27.476123,152.92001,304.79999]","[-3.0862771,0.0,0.0]",61.73333359,0,4082.33137,11490.15645,11521.24631,red3,red,2
24,4,"[-27.48528,152.74641,304.79999]","[2.0448748,0.0,0.0]",61.73333359,0,4082.33137,11490.11321,11521.24631,red4,red,2
24,5,"[-27.438755,152.79287,304.79999]","[2.0334048,0.0,0.0]",61.73333359,0,4082.33137,11490.11321,11521.24631,red5,red,2
24,6,"[-27.513494,153.1096,304.79999]","[-1.8133206,0.0,0.0]",61.73333359,0,4082.33137,11490.11321,11521.24631,red6,red,2
24,7,"[-27.714394,152.89167,304.79999]","[-5.5511363e-17,0.0,0.0]",61.73333359,0,2267.961872,7693.259923,7711.070366,blue1,blue,2
24,8,"[-27.547649,152.68949,304.79999]","[1.3088824,0.0,0.0]",61.73333359,0,2267.961872,7693.272291,7711.070366,blue2,blue,2
25,1,"[-27.369589,153.06719,304.79999]","[-2.5111838,0.0,0.0]",61.73333359,0,4082.33137,11488.83762,11521.24631,red1,red,2
25,2,"[-27.202725,153.07214,304.79999]","[-3.0289132,0.0,0.0]",61.73333359,0,4082.33137,11488.85924,11521.24631,red2,red,2
25,3,"[-27.47668,152.91997,304.79999]","[-3.0862768,0.0,0.0]",61.73333359,0,4082.33137,11488.85924,11521.24631,red3,red,2
25,4,"[-27.485535,152.74696,304.79999]","[2.0448703,0.0,0.0]",61.73333359,0,4082.33137,11488.816,11521.24631,red4,red,2
25,5,"[-27.439004,152.79343,304.79999]","[2.0334003,0.0,0.0]",61.73333359,0,4082.33137,11488.816,11521.24631,red5,red,2
25,6,"[-27.513628,153.10899,304.79999]","[-1.8133157,0.0,0.0]",61.73333359,0,4082.33137,11488.816,11521.24631,red6,red,2
25,7,"[-27.713836,152.89167,304.79999]","[2.7755681e-17,0.0,0.0]",61.73333359,0,2267.961872,7692.517821,7711.070366,blue1,blue,2
25,8,"[-27.547507,152.69009,304.79999]","[1.3088776,0.0,0.0]",61.73333359,0,2267.961872,7692.542558,7711.070366,blue2,blue,2
26,1,"[-27.370039,153.06682,304.79999]","[-2.5111809,0.0,0.0]",61.73333359,0,4082.33137,11487.54041,11521.24631,red1,red,2
26,2,"[-27.203279,153.07207,304.79999]","[-3.0289127,0.0,0.0]",61.73333359,0,4082.33137,11487.56203,11521.24631,red2,red,2
26,3,"[-27.477237,152.91994,304.79999]","[-3.0862766,0.0,0.0]",61.73333359,0,4082.33137,11487.56203,11521.24631,red3,red,2
26,4,"[-27.485789,152.74752,304.79999]","[2.0448659,0.0,0.0]",61.73333359,0,4082.33137,11487.51879,11521.24631,red4,red,2
26,5,"[-27.439253,152.79399,304.79999]","[2.0333958,0.0,0.0]",61.73333359,0,4082.33137,11487.51879,11521.24631,red5,red,2
26,6,"[-27.513761,153.10838,304.79999]","[-1.8133109,0.0,0.0]",61.73333359,0,4082.33137,11487.51879,11521.24631,red6,red,2
26,7,"[-27.713279,152.89167,304.79999]","[-5.5511363e-17,0.0,0.0]",61.73333359,0,2267.961872,7691.775719,7711.070366,blue1,blue,2
26,8,"[-27.54736,152.6907,304.79999]","[1.3088727,0.0,0.0]",61.73333359,0,2267.961872,7691.788088,7711.070366,blue2,blue,2
27,1,"[-27.37049,153.06645,304.79999]","[-2.5111779,0.0,0.0]",61.73333359,0,4082.33137,11486.2432,11521.24631,red1,red,2
27,2,"[-27.203833,153.072,304.79999]","[-3.0289121,0.0,0.0]",61.73333359,0,4082.33137,11486.26482,11521.24631,red2,red,2
27,3,"[-27.477794,152.9199,304.79999]","[-3.0862763,0.0,0.0]",61.73333359,0,4082.33137,11486.26482,11521.24631,red3,red,2
27,4,"[-27.486044,152.74807,304.79999]","[2.0448614,0.0,0.0]",61.73333359,0,4082.33137,11486.22158,11521.24631,red4,red,2
27,5,"[-27.439502,152.79454,304.79999]","[2.0333913,0.0,0.0]",61.73333359,0,4082.33137,11486.22158,11521.24631,red5,red,2
27,6,"[-27.513895,153.10777,304.79999]","[-1.813306,0.0,0.0]",61.73333359,0,4082.33137,11486.22158,11521.24631,red6,red,2
27,7,"[-27.712721,152.89167,304.79999]","[0.0,0.0,0.0]",61.73333359,0,2267.961872,7691.033618,7711.070366,blue1,blue,2
27,8,"[-27.547218,152.6913,304.79999]","[1.3088679,0.0,0.0]",61.73333359,0,2267.961872,7691.058354,7711.070366,blue2,blue,2
28,1,"[-27.37094,153.06609,304.79999]","[-2.511175,0.0,0.0]",61.73333359,0,4082.33137,11484.94598,11521.24631,red1,red,2
28,2,"[-27.204388,153.07193,304.79999]","[-3.0289116,0.0,0.0]",61.73333359,0,4082.33137,11484.9676,11521.24631,red2,red,2
28,3,"[-27.47835,152.91987,304.79999]","[-3.086276,0.0,0.0]",61.73333359,0,4082.33137,11484.9676,11521.24631,red3,red,2
28,4,"[-27.486299,152.74863,304.79999]","[2.0448569,0.0,0.0]",61.73333359,0,4082.33137,11484.92436,11521.24631,red4,red,2
28,5,"[-27.439751,152.7951,304.79999]","[2.0333869,0.0,0.0]",61.73333359,0,4082.33137,11484.92436,11521.24631,red5,red,2
28,6,"[-27.514029,153.10717,304.79999]","[-1.8133011,0.0,0.0]",61.73333359,0,4082.33137,11484.92436,11521.24631,red6,red,2
28,7,"[-27.712163,152.89167,304.79999]","[-2.7755681e-17,0.0,0.0]",61.73333359,0,2267.961872,7690.291516,7711.070366,blue1,blue,2
28,8,"[-27.547071,152.69191,304.79999]","[1.308863,0.0,0.0]",61.73333359,0,2267.961872,7690.303884,7711.070366,blue2,blue,2
29,1,"[-27.371391,153.06572,304.79999]","[-2.511172,0.0,0.0]",61.73333359,0,4082.33137,11483.64877,11521.24631,red1,red,2
29,2,"[-27.204942,153.07186,304.79999]","[-3.028911,0.0,0.0]",61.73333359,0,4082.33137,11483.67039,11521.24631,red2,red,2
29,3,"[-27.478907,152.91983,304.79999]","[-3.0862757,0.0,0.0]",61.73333359,0,4082.33137,11483.67039,11521.24631,red3,red,2
29,4,"[-27.486553,152.74919,304.79999]","[2.0448525,0.0,0.0]",61.73333359,0,4082.33137,11483.62715,11521.24631,red4,red,2
29,5,"[-27.439999,152.79566,304.79999]","[2.0333824,0.0,0.0]",61.73333359,0,4082.33137,11483.62715,11521.24631,red5,red,2
29,6,"[-27.514163,153.10656,304.79999]","[-1.8132962,0.0,0.0]",61.73333359,0,4082.33137,11483.62715,11521.24631,red6,red,2
29,7,"[-27.711606,152.89167,304.79999]","[2.7755681e-17,0.0,0.0]",61.73333359,0,2267.961872,7689.549414,7711.070366,blue1,blue,2
29,8,"[-27.546929,152.69251,304.79999]","[1.3088582,0.0,0.0]",61.73333359,0,2267.961872,7689.574151,7711.070366,blue2,blue,2
30,1,"[-27.371841,153.06535,304.79999]","[-2.5111691,0.0,0.0]",61.73333359,0,4082.33137,11482.35156,11521.24631,red1,red,2
30,2,"[-27.205496,153.07179,304.79999]","[-3.0289104,0.0,0.0]",61.73333359,0,4082.33137,11482.37318,11521.24631,red2,red,2
30,3,"[-27.479464,152.9198,304.79999]","[-3.0862754,0.0,0.0]",61.73333359,0,4082.33137,11482.37318,11521.24631,red3,red,2
30,4,"[-27.486808,152.74974,304.79999]","[2.044848,0.0,0.0]",61.73333359,0,4082.33137,11482.32994,11521.24631,red4,red,2
30,5,"[-27.440248,152.79622,304.79999]","[2.0333779,0.0,0.0]",61.73333359,0,4082.33137,11482.32994,11521.24631,red5,red,2
30,6,"[-27.514297,153.10595,304.79999]","[-1.8132914,0.0,0.0]",61.73333359,0,4082.33137,11482.32994,11521.24631,red6,red,2
30,7,"[-27.711048,152.89167,304.79999]","[0.0,0.0,0.0]",61.73333359,0,2267.961872,7688.807312,7711.070366,blue1,blue,2
30,8,"[-27.546782,152.69312,304.79999]","[1.3088533,0.0,0.0]",61.73333359,0,2267.961872,7688.81968,7711.070366,blue2,blue,2
31,1,"[-27.372292,153.06498,304.79999]","[-2.5111662,0.0,0.0]",61.73333359,0,4082.33137,11481.05435,11521.24631,red1,red,2
31,2,"[-27.20605,153.07172,304.79999]","[-3.0289099,0.0,0.0]",61.73333359,0,4082.33137,11481.07597,11521.24631,red2,red,2
31,3,"[-27.480021,152.91976,304.79999]","[-3.0862752,0.0,0.0]",61.73333359,0,4082.33137,11481.07597,11521.24631,red3,red,2
31,4,"[-27.487062,152.7503,304.79999]","[2.0448436,0.0,0.0]",61.73333359,0,4082.33137,11481.03273,11521.24631,red4,red,2
31,5,"[-27.440497,152.79678,304.79999]","[2.0333734,0.0,0.0]",61.73333359,0,4082.33137,11481.03273,11521.24631,red5,red,2
31,6,"[-27.514431,153.10534,304.79999]","[-1.8132865,0.0,0.0]",61.73333359,0,4082.33137,11481.03273,11521.24631,red6,red,2
31,7,"[-27.710491,152.89167,304.79999]","[-2.7755681e-17,0.0,0.0]",61.73333359,0,2267.961872,7688.06521,7711.070366,blue1,blue,2
31,8,"[-27.54664,152.69371,304.79999]","[1.3088485,0.0,0.0]",61.73333359,0,2267.961872,7688.089947,7711.070366,blue2,blue,2
32,1,"[-27.372742,153.06461,304.79999]","[-2.5111632,0.0,0.0]",61.73333359,0,4082.33137,11479.75713,11521.24631,red1,red,2
32,2,"[-27.206604,153.07165,304.79999]","[-3.0289093,0.0,0.0]",61.73333359,0,4082.33137,11479.77875,11521.24631,red2,red,2
32,3,"[-27.480578,152.91973,304.79999]","[-3.0862749,0.0,0.0]",61.73333359,0,4082.33137,11479.77875,11521.24631,red3,red,2
32,4,"[-27.487317,152.75086,304.79999]","[2.0448391,0.0,0.0]",61.73333359,0,4082.33137,11479.73551,11521.24631,red4,red,2
32,5,"[-27.440746,152.79734,304.79999]","[2.033369,0.0,0.0]",61.73333359,0,4082.33137,11479.73551,11521.24631,red5,red,2
32,6,"[-27.514565,153.10474,304.79999]","[-1.8132816,0.0,0.0]",61.73333359,0,4082.33137,11479.73551,11521.24631,red6,red,2
32,7,"[-27.709933,152.89167,304.79999]","[-2.7755681e-17,0.0,0.0]",61.73333359,0,2267.961872,7687.323108,7711.070366,blue1,blue,2
32,8,"[-27.546493,152.69433,304.79999]","[1.3088436,0.0,0.0]",61.73333359,0,2267.961872,7687.335477,7711.070366,blue2,blue,2
33,1,"[-27.373192,153.06424,304.79999]","[-2.5111603,0.0,0.0]",61.73333359,0,4082.33137,11478.45992,11521.24631,red1,red,2
33,2,"[-27.207158,153.07158,304.79999]","[-3.0289088,0.0,0.0]",61.73333359,0,4082.33137,11478.48154,11521.24631,red2,red,2
33,3,"[-27.481135,152.91969,304.79999]","[-3.0862746,0.0,0.0]",61.73333359,0,4082.33137,11478.48154,11521.24631,red3,red,2
33,4,"[-27.487571,152.75141,304.79999]","[2.0448346,0.0,0.0]",61.73333359,0,4082.33137,11478.4383,11521.24631,red4,red,2
33,5,"[-27.440995,152.7979,304.79999]","[2.0333645,0.0,0.0]",61.73333359,0,4082.33137,11478.4383,11521.24631,red5,red,2
33,6,"[-27.514699,153.10413,304.79999]","[-1.8132768,0.0,0.0]",61.73333359,0,4082.33137,11478.4383,11521.24631,red6,red,2
33,7,"[-27.709375,152.89167,304.79999]","[0.0,0.0,0.0]",61.73333359,0,2267.961872,7686.581007,7711.070366,blue1,blue,2
33,8,"[-27.54635,152.69493,304.79999]","[1.3088388,0.0,0.0]",61.73333359,0,2267.961872,7686.599392,7711.070366,blue2,blue,2
34,1,"[-27.373643,153.06388,304.79999]","[-2.5111574,0.0,0.0]",61.73333359,0,4082.33137,11477.16271,11521.24631,red1,red,2
34,2,"[-27.207713,153.07151,304.79999]","[-3.0289082,0.0,0.0]",61.73333359,0,4082.33137,11477.18433,11521.24631,red2,red,2
34,3,"[-27.481691,152.91966,304.79999]","[-3.0862743,0.0,0.0]",61.73333359,0,4082.33137,11477.18433,11521.24631,red3,red,2
34,4,"[-27.487826,152.75197,304.79999]","[2.0448302,0.0,0.0]",61.73333359,0,4082.33137,11477.14109,11521.24631,red4,red,2
34,5,"[-27.441244,152.79846,304.79999]","[2.03336,0.0,0.0]",61.73333359,0,4082.33137,11477.14109,11521.24631,red5,red,2
34,6,"[-27.514833,153.10352,304.79999]","[-1.8132719,0.0,0.0]",61.73333359,0,4082.33137,11477.14109,11521.24631,red6,red,2
34,7,"[-27.708818,152.89167,304.79999]","[2.7755681e-17,0.0,0.0]",61.73333359,0,2267.961872,7685.838905,7711.070366,blue1,blue,2
34,8,"[-27.546206,152.69553,304.79999]","[1.3088339,0.0,0.0]",61.73333359,0,2267.961872,7685.85729,7711.070366,blue2,blue,2
35,1,"[-27.374093,153.06351,304.79999]","[-2.5111544,0.0,0.0]",61.73333359,0,4082.33137,11475.8655,11521.24631,red1,red,2
35,2,"[-27.208267,153.07144,304.79999]","[-3.0289077,0.0,0.0]",61.73333359,0,4082.33137,11475.88712,11521.24631,red2,red,2
35,3,"[-27.482248,152.91963,304.79999]","[-3.0862741,0.0,0.0]",61.73333359,0,4082.33137,11475.88712,11521.24631,red3,red,2
35,4,"[-27.488081,152.75253,304.79999]","[2.0448257,0.0,0.0]",61.73333359,0,4082.33137,11475.84388,11521.24631,red4,red,2
35,5,"[-27.441493,152.79902,304.79999]","[2.0333555,0.0,0.0]",61.73333359,0,4082.33137,11475.84388,11521.24631,red5,red,2
35,6,"[-27.514967,153.10292,304.79999]","[-1.813267,0.0,0.0]",61.73333359,0,4082.33137,11475.84388,11521.24631,red6,red,2
35,7,"[-27.70826,152.89167,304.79999]","[0.0,0.0,0.0]",61.73333359,0,2267.961872,7685.096803,7711.070366,blue1,blue,2
35,8,"[-27.546061,152.69614,304.79999]","[1.3088291,0.0,0.0]",61.73333359,0,2267.961872,7685.115189,7711.070366,blue2,blue,2
36,1,"[-27.374544,153.06314,304.79999]","[-2.5111515,0.0,0.0]",61.73333359,0,4082.33137,11474.56828,11521.24631,red1,red,2
36,2,"[-27.208821,153.07137,304.79999]","[-3.0289071,0.0,0.0]",61.73333359,0,4082.33137,11474.5899,11521.24631,red2,red,2
36,3,"[-27.482805,152.91959,304.79999]","[-3.0862738,0.0,0.0]",61.73333359,0,4082.33137,11474.5899,11521.24631,red3,red,2
36,4,"[-27.488335,152.75308,304.79999]","[2.0448213,0.0,0.0]",61.73333359,0,4082.33137,11474.54666,11521.24631,red4,red,2
36,5,"[-27.441741,152.79958,304.79999]","[2.033351,0.0,0.0]",61.73333359,0,4082.33137,11474.54666,11521.24631,red5,red,2
36,6,"[-27.515101,153.10231,304.79999]","[-1.8132622,0.0,0.0]",61.73333359,0,4082.33137,11474.54666,11521.24631,red6,red,2
36,7,"[-27.707702,152.89167,304.79999]","[0.0,0.0,0.0]",61.73333359,0,2267.961872,7684.354701,7711.070366,blue1,blue,2
36,8,"[-27.545917,152.69674,304.79999]","[1.3088242,0.0,0.0]",61.73333359,0,2267.961872,7684.373087,7711.070366,blue2,blue,2
37,1,"[-27.374994,153.06277,304.79999]","[-2.5111485,0.0,0.0]",61.73333359,0,4082.33137,11473.27107,11521.24631,red1,red,2
37,2,"[-27.209375,153.0713,304.79999]","[-3.0289065,0.0,0.0]",61.73333359,0,4082.33137,11473.29269,11521.24631,red2,red,2
37,3,"[-27.483362,152.91956,304.79999]","[-3.0862735,0.0,0.0]",61.73333359,0,4082.33137,11473.29269,11521.24631,red3,red,2
37,4,"[-27.48859,152.75364,304.79999]","[2.0448168,0.0,0.0]",61.73333359,0,4082.33137,11473.24945,11521.24631,red4,red,2
37,5,"[-27.44199,152.80014,304.79999]","[2.0333466,0.0,0.0]",61.73333359,0,4082.33137,11473.24945,11521.24631,red5,red,2
37,6,"[-27.515234,153.1017,304.79999]","[-1.8132573,0.0,0.0]",61.73333359,0,4082.33137,11473.24945,11521.24631,red6,red,2
37,7,"[-27.707145,152.89167,304.79999]","[-2.7755681e-17,0.0,0.0]",61.73333359,0,2267.961872,7683.612599,7711.070366,blue1,blue,2
37,8,"[-27.545772,152.69735,304.79999]","[1.3088194,0.0,0.0]",61.73333359,0,2267.961872,7683.630985,7711.070366,blue2,blue,2
38,1,"[-27.375445,153.0624,304.79999]","[-2.5111456,0.0,0.0]",61.73333359,0,4082.33137,11471.97386,11521.24631,red1,red,2
38,2,"[-27.209929,153.07123,304.79999]","[-3.028906,0.0,0.0]",61.73333359,0,4082.33137,11471.99548,11521.24631,red2,red,2
38,3,"[-27.483919,152.91952,304.79999]","[-3.0862732,0.0,0.0]",61.73333359,0,4082.33137,11471.99548,11521.24631,red3,red,2
38,4,"[-27.488844,152.75419,304.79999]","[2.0448124,0.0,0.0]",61.73333359,0,4082.33137,11471.95224,11521.24631,red4,red,2
38,5,"[-27.442239,152.8007,304.79999]","[2.0333421,0.0,0.0]",61.73333359,0,4082.33137,11471.95224,11521.24631,red5,red,2
38,6,"[-27.515368,153.10109,304.79999]","[-1.8132524,0.0,0.0]",61.73333359,0,4082.33137,11471.95224,11521.24631,red6,red,2
38,7,"[-27.706587,152.89167,304.79999]","[2.7755681e-17,0.0,0.0]",61.73333359,0,2267.961872,7682.870498,7711.070366,blue1,blue,2
38,8,"[-27.545628,152.69795,304.79999]","[1.3088145,0.0,0.0]",61.73333359,0,2267.961872,7682.888883,7711.070366,blue2,blue,2
39,1,"[-27.375895,153.06203,304.79999]","[-2.5111427,0.0,0.0]",61.73333359,0,4082.33137,11470.67665,11521.24631,red1,red,2
39,2,"[-27.210483,153.07116,304.79999]","[-3.0289054,0.0,0.0]",61.73333359,0,4082.33137,11470.69827,11521.24631,red2,red,2
39,3,"[-27.484476,152.91949,304.79999]","[-3.086273,0.0,0.0]",61.73333359,0,4082.33137,11470.69827,11521.24631,red3,red,2
39,4,"[-27.489099,152.75475,304.79999]","[2.0448079,0.0,0.0]",61.73333359,0,4082.33137,11470.65503,11521.24631,red4,red,2
39,5,"[-27.442488,152.80126,304.79999]","[2.0333376,0.0,0.0]",61.73333359,0,4082.33137,11470.65503,11521.24631,red5,red,2
39,6,"[-27.515502,153.10049,304.79999]","[-1.8132475,0.0,0.0]",61.73333359,0,4082.33137,11470.65503,11521.24631,red6,red,2
39,7,"[-27.706029,152.89167,304.79999]","[-2.7755681e-17,0.0,0.0]",61.73333359,0,2267.961872,7682.128396,7711.070366,blue1,blue,2
39,8,"[-27.545484,152.69855,304.79999]","[1.3088097,0.0,0.0]",61.73333359,0,2267.961872,7682.146781,7711.070366,blue2,blue,2
40,1,"[-27.376346,153.06167,304.79999]","[-2.5111397,0.0,0.0]",61.73333359,0,4082.33137,11469.37943,11521.24631,red1,red,2
40,2,"[-27.211038,153.07109,304.79999]","[-3.0289049,0.0,0.0]",61.73333359,0,4082.33137,11469.40105,11521.24631,red2,red,2
40,3,"[-27.485032,152.91945,304.79999]","[-3.0862727,0.0,0.0]",61.73333359,0,4082.33137,11469.40105,11521.24631,red3,red,2
40,4,"[-27.489353,152.75531,304.79999]","[2.0448034,0.0,0.0]",61.73333359,0,4082.33137,11469.35781,11521.24631,red4,red,2
40,5,"[-27.442737,152.80182,304.79999]","[2.0333331,0.0,0.0]",61.73333359,0,4082.33137,11469.35781,11521.24631,red5,red,2
40,6,"[-27.515636,153.09988,304.79999]","[-1.8132427,0.0,0.0]",61.73333359,0,4082.33137,11469.35781,11521.24631,red6,red,2
40,7,"[-27.705472,152.89167,304.79999]","[-2.7755681e-17,0.0,0.0]",61.73333359,0,2267.961872,7681.386294,7711.070366,blue1,blue,2
40,8,"[-27.545339,152.69916,304.79999]","[1.3088048,0.0,0.0]",61.73333359,0,2267.961872,7681.40468,7711.070366,blue2,blue,2
41,1,"[-27.376796,153.0613,304.79999]","[-2.5111368,0.0,0.0]",61.73333359,0,4082.33137,11468.08222,11521.24631,red1,red,2
41,2,"[-27.211592,153.07102,304.79999]","[-3.0289043,0.0,0.0]",61.73333359,0,4082.33137,11468.10384,11521.24631,red2,red,2
41,3,"[-27.485589,152.91942,304.79999]","[-3.0862724,0.0,0.0]",61.73333359,0,4082.33137,11468.10384,11521.24631,red3,red,2
41,4,"[-27.489608,152.75586,304.79999]","[2.044799,0.0,0.0]",61.73333359,0,4082.33137,11468.0606,11521.24631,red4,red,2
41,5,"[-27.442986,152.80238,304.79999]","[2.0333287,0.0,0.0]",61.73333359,0,4082.33137,11468.0606,11521.24631,red5,red,2
41,6,"[-27.51577,153.09927,304.79999]","[-1.8132378,0.0,0.0]",61.73333359,0,4082.33137,11468.0606,11521.24631,red6,red,2
41,7,"[-27.704914,152.89167,304.79999]","[-2.7755681e-17,0.0,0.0]",61.73333359,0,2267.961872,7680.644192,7711.070366,blue1,blue,2
41,8,"[-27.545195,152.69976,304.79999]","[1.3088,0.0,0.0]",61.73333359,0,2267.961872,7680.662578,7711.070366,blue2,blue,2
42,1,"[-27.377247,153.06093,304.79999]","[-2.5111338,0.0,0.0]",61.73333359,0,4082.33137,11466.78501,11521.24631,red1,red,2
42,2,"[-27.212146,153.07095,304.79999]","[-3.0289038,0.0,0.0]",61.73333359,0,4082.33137,11466.80663,11521.24631,red2,red,2
42,3,"[-27.486146,152.91938,304.79999]","[-3.0862721,0.0,0.0]",61.73333359,0,4082.33137,11466.80663,11521.24631,red3,red,2
42,4,"[-27.489862,152.75642,304.79999]","[2.0447945,0.0,0.0]",61.73333359,0,4082.33137,11466.76339,11521.24631,red4,red,2
42,5,"[-27.443235,152.80294,304.79999]","[2.0333242,0.0,0.0]",61.73333359,0,4082.33137,11466.76339,11521.24631,red5,red,2
42,6,"[-27.515904,153.09867,304.79999]","[-1.8132329,0.0,0.0]",61.73333359,0,4082.33137,11466.76339,11521.24631,red6,red,2
42,7,"[-27.704356,152.89167,304.79999]","[-5.5511363e-17,0.0,0.0]",61.73333359,0,2267.961872,7679.90209,7711.070366,blue1,blue,2
42,8,"[-27.54505,152.70037,304.79999]","[1.3087951,0.0,0.0]",61.73333359,0,2267.961872,7679.920476,7711.070366,blue2,blue,2
43,1,"[-27.377697,153.06056,304.79999]","[-2.5111309,0.0,0.0]",61.73333359,0,4082.33137,11465.4878,11521.24631,red1,red,2
43,2,"[-27.2127,153.07088,304.79999]","[-3.0289032,0.0,0.0]",61.73333359,0,4082.33137,11465.50942,11521.24631,red2,red,2
43,3,"[-27.486703,152.91935,304.79999]","[-3.0862718,0.0,0.0]",61.73333359,0,4082.33137,11465.50942,11521.24631,red3,red,2
43,4,"[-27.490117,152.75698,304.79999]","[2.0447901,0.0,0.0]",61.73333359,0,4082.33137,11465.46618,11521.24631,red4,red,2
43,5,"[-27.443483,152.80349,304.79999]","[2.0333197,0.0,0.0]",61.73333359,0,4082.33137,11465.46618,11521.24631,red5,red,2
43,6,"[-27.516038,153.09806,304.79999]","[-1.8132281,0.0,0.0]",61.73333359,0,4082.33137,11465.46618,11521.24631,red6,red,2
43,7,"[-27.703799,152.89167,304.79999]","[0.0,0.0,0.0]",61.73333359,0,2267.961872,7679.159989,7711.070366,blue1,blue,2
43,8,"[-27.544906,152.70097,304.79999]","[1.3087903,0.0,0.0]",61.73333359,0,2267.961872,7679.178374,7711.070366,blue2,blue,2
44,1,"[-27.378148,153.06019,304.79999]","[-2.511128,0.0,0.0]",61.73333359,0,4082.33137,11464.19058,11521.24631,red1,red,2
44,2,"[-27.213254,153.07081,304.79999]","[-3.0289027,0.0,0.0]",61.73333359,0,4082.33137,11464.2122,11521.24631,red2,red,2
44,3,"[-27.48726,152.91931,304.79999]","[-3.0862716,0.0,0.0]",61.73333359,0,4082.33137,11464.2122,11521.24631,red3,red,2
44,4,"[-27.490372,152.75753,304.79999]","[2.0447856,0.0,0.0]",61.73333359,0,4082.33137,11464.16896,11521.24631,red4,red,2
44,5,"[-27.443732,152.80405,304.79999]","[2.0333152,0.0,0.0]",61.73333359,0,4082.33137,11464.16896,11521.24631,red5,red,2
44,6,"[-27.516172,153.09745,304.79999]","[-1.8132232,0.0,0.0]",61.73333359,0,4082.33137,11464.16896,11521.24631,red6,red,2
44,7,"[-27.703241,152.89167,304.79999]","[-2.7755681e-17,0.0,0.0]",61.73333359,0,2267.961872,7678.417887,7711.070366,blue1,blue,2
44,8,"[-27.544761,152.70158,304.79999]","[1.3087854,0.0,0.0]",61.73333359,0,2267.961872,7678.436272,7711.070366,blue2,blue,2
45,1,"[-27.378598,153.05983,304.79999]","[-2.511125,0.0,0.0]",61.73333359,0,4082.33137,11462.89337,11521.24631,red1,red,2
45,2,"[-27.213808,153.07074,304.79999]","[-3.0289021,0.0,0.0]",61.73333359,0,4082.33137,11462.91499,11521.24631,red2,red,2
45,3,"[-27.487816,152.91928,304.79999]","[-3.0862713,0.0,0.0]",61.73333359,0,4082.33137,11462.91499,11521.24631,red3,red,2
45,4,"[-27.490626,152.75809,304.79999]","[2.0447811,0.0,0.0]",61.73333359,0,4082.33137,11462.87175,11521.24631,red4,red,2
45,5,"[-27.443981,152.80461,304.79999]","[2.0333108,0.0,0.0]",61.73333359,0,4082.33137,11462.87175,11521.24631,red5,red,2
45,6,"[-27.516306,153.09684,304.79999]","[-1.8132183,0.0,0.0]",61.73333359,0,4082.33137,11462.87175,11521.24631,red6,red,2
45,7,"[-27.702683,152.89167,304.79999]","[-5.5511363e-17,0.0,0.0]",61.73333359,0,2267.961872,7677.675785,7711.070366,blue1,blue,2
45,8,"[-27.544617,152.70218,304.79999]","[1.3087806,0.0,0.0]",61.73333359,0,2267.961872,7677.694171,7711.070366,blue2,blue,2
46,1,"[-27.379049,153.05946,304.79999]","[-2.5111221,0.0,0.0]",61.73333359,0,4082.33137,11461.59616,11521.24631,red1,red,2
46,2,"[-27.214363,153.07067,304.79999]","[-3.0289015,0.0,0.0]",61.73333359,0,4082.33137,11461.61778,11521.24631,red2,red,2
46,3,"[-27.488373,152.91925,304.79999]","[-3.086271,0.0,0.0]",61.73333359,0,4082.33137,11461.61778,11521.24631,red3,red,2
46,4,"[-27.490881,152.75865,304.79999]","[2.0447767,0.0,0.0]",61.73333359,0,4082.33137,11461.57454,11521.24631,red4,red,2
46,5,"[-27.44423,152.80517,304.79999]","[2.0333063,0.0,0.0]",61.73333359,0,4082.33137,11461.57454,11521.24631,red5,red,2
46,6,"[-27.516439,153.09624,304.79999]","[-1.8132135,0.0,0.0]",61.73333359,0,4082.33137,11461.57454,11521.24631,red6,red,2
46,7,"[-27.702126,152.89167,304.79999]","[-2.7755681e-17,0.0,0.0]",61.73333359,0,2267.961872,7676.933683,7711.070366,blue1,blue,2
46,8,"[-27.544472,152.70278,304.79999]","[1.3087757,0.0,0.0]",61.73333359,0,2267.961872,7676.952069,7711.070366,blue2,blue,2
47,1,"[-27.379499,153.05909,304.79999]","[-2.5111191,0.0,0.0]",61.73333359,0,4082.33137,11460.29895,11521.24631,red1,red,2
47,2,"[-27.214917,153.0706,304.79999]","[-3.028901,0.0,0.0]",61.73333359,0,4082.33137,11460.32057,11521.24631,red2,red,2
47,3,"[-27.48893,152.91921,304.79999]","[-3.0862707,0.0,0.0]",61.73333359,0,4082.33137,11460.32057,11521.24631,red3,red,2
47,4,"[-27.491135,152.7592,304.79999]","[2.0447722,0.0,0.0]",61.73333359,0,4082.33137,11460.27733,11521.24631,red4,red,2
47,5,"[-27.444479,152.80573,304.79999]","[2.0333018,0.0,0.0]",61.73333359,0,4082.33137,11460.27733,11521.24631,red5,red,2
47,6,"[-27.516573,153.09563,304.79999]","[-1.8132086,0.0,0.0]",61.73333359,0,4082.33137,11460.27733,11521.24631,red6,red,2
47,7,"[-27.701568,152.89167,304.79999]","[-2.7755681e-17,0.0,0.0]",61.73333359,0,2267.961872,7676.191581,7711.070366,blue1,blue,2
47,8,"[-27.544328,152.70339,304.79999]","[1.3087709,0.0,0.0]",61.73333359,0,2267.961872,7676.209967,7711.070366,blue2,blue,2
48,1,"[-27.37995,153.05872,304.79999]","[-2.5111162,0.0,0.0]",61.73333359,0,4082.33137,11459.00173,11521.24631,red1,red,2
48,2,"[-27.215471,153.07053,304.79999]","[-3.0289004,0.0,0.0]",61.73333359,0,4082.33137,11459.02335,11521.24631,red2,red,2
48,3,"[-27.489487,152.91918,304.79999]","[-3.0862705,0.0,0.0]",61.73333359,0,4082.33137,11459.02335,11521.24631,red3,red,2
48,4,"[-27.49139,152.75976,304.79999]","[2.0447678,0.0,0.0]",61.73333359,0,4082.33137,11458.98011,11521.24631,red4,red,2
48,5,"[-27.444728,152.80629,304.79999]","[2.0332973,0.0,0.0]",61.73333359,0,4082.33137,11458.98011,11521.24631,red5,red,2
48,6,"[-27.516707,153.09502,304.79999]","[-1.8132037,0.0,0.0]",61.73333359,0,4082.33137,11458.98011,11521.24631,red6,red,2
48,7,"[-27.70101,152.89167,304.79999]","[0.0,0.0,0.0]",61.73333359,0,2267.961872,7675.44948,7711.070366,blue1,blue,2
48,8,"[-27.544184,152.70399,304.79999]","[1.308766,0.0,0.0]",61.73333359,0,2267.961872,7675.467865,7711.070366,blue2,blue,2
49,1,"[-27.3804,153.05835,304.79999]","[-2.5111132,0.0,0.0]",61.73333359,0,4082.33137,11457.70452,11521.24631,red1,red,2
49,2,"[-27.216025,153.07046,304.79999]","[-3.0288999,0.0,0.0]",61.73333359,0,4082.33137,11457.72614,11521.24631,red2,red,2
49,3,"[-27.490044,152.91914,304.79999]","[-3.0862702,0.0,0.0]",61.73333359,0,4082.33137,11457.72614,11521.24631,red3,red,2
49,4,"[-27.491644,152.76032,304.79999]","[2.0447633,0.0,0.0]",61.73333359,0,4082.33137,11457.6829,11521.24631,red4,red,2
49,5,"[-27.444976,152.80685,304.79999]","[2.0332929,0.0,0.0]",61.73333359,0,4082.33137,11457.6829,11521.24631,red5,red,2
49,6,"[-27.516841,153.09442,304.79999]","[-1.8131988,0.0,0.0]",61.73333359,0,4082.33137,11457.6829,11521.24631,red6,red,2
49,7,"[-27.700453,152.89167,304.79999]","[0.0,0.0,0.0]",61.73333359,0,2267.961872,7674.707378,7711.070366,blue1,blue,2
49,8,"[-27.544039,152.7046,304.79999]","[1.3087612,0.0,0.0]",61.73333359,0,2267.961872,7674.725763,7711.070366,blue2,blue,2
50,1,"[-27.380851,153.05798,304.79999]","[-2.5111103,0.0,0.0]",61.73333359,0,4082.33137,11456.40731,11521.24631,red1,red,2
50,2,"[-27.216579,153.07039,304.79999]","[-3.0288993,0.0,0.0]",61.73333359,0,4082.33137,11456.42893,11521.24631,red2,red,2
50,3,"[-27.490601,152.91911,304.79999]","[-3.0862699,0.0,0.0]",61.73333359,0,4082.33137,11456.42893,11521.24631,red3,red,2
50,4,"[-27.491899,152.76087,304.79999]","[2.0447588,0.0,0.0]",61.73333359,0,4082.33137,11456.38569,11521.24631,red4,red,2
50,5,"[-27.445225,152.80741,304.79999]","[2.0332884,0.0,0.0]",61.73333359,0,4082.33137,11456.38569,11521.24631,red5,red,2
50,6,"[-27.516975,153.09381,304.79999]","[-1.813194,0.0,0.0]",61.73333359,0,4082.33137,11456.38569,11521.24631,red6,red,2
50,7,"[-27.699895,152.89167,304.79999]","[-2.7755681e-17,0.0,0.0]",61.73333359,0,2267.961872,7673.965276,7711.070366,blue1,blue,2
50,8,"[-27.543895,152.7052,304.79999]","[1.3087563,0.0,0.0]",61.73333359,0,2267.961872,7673.983662,7711.070366,blue2,blue,2
51,1,"[-27.381301,153.05762,304.79999]","[-2.5111074,0.0,0.0]",61.73333359,0,4082.33137,11455.1101,11521.24631,red1,red,2
51,2,"[-27.217133,153.07032,304.79999]","[-3.0288988,0.0,0.0]",61.73333359,0,4082.33137,11455.13172,11521.24631,red2,red,2
51,3,"[-27.491157,152.91907,304.79999]","[-3.0862696,0.0,0.0]",61.73333359,0,4082.33137,11455.13172,11521.24631,red3,red,2
51,4,"[-27.492153,152.76143,304.79999]","[2.0447544,0.0,0.0]",61.73333359,0,4082.33137,11455.08848,11521.24631,red4,red,2
51,5,"[-27.445474,152.80797,304.79999]","[2.0332839,0.0,0.0]",61.73333359,0,4082.33137,11455.08848,11521.24631,red5,red,2
51,6,"[-27.517109,153.0932,304.79999]","[-1.8131891,0.0,0.0]",61.73333359,0,4082.33137,11455.08848,11521.24631,red6,red,2
51,7,"[-27.699337,152.89167,304.79999]","[-2.7755681e-17,0.0,0.0]",61.73333359,0,2267.961872,7673.223174,7711.070366,blue1,blue,2
51,8,"[-27.54375,152.70581,304.79999]","[1.3087515,0.0,0.0]",61.73333359,0,2267.961872,7673.24156,7711.070366,blue2,blue,2
52,1,"[-27.381752,153.05725,304.79999]","[-2.5111044,0.0,0.0]",61.73333359,0,4082.33137,11453.81288,11521.24631,red1,red,2
52,2,"[-27.217688,153.07025,304.79999]","[-3.0288982,0.0,0.0]",61.73333359,0,4082.33137,11453.8345,11521.24631,red2,red,2
52,3,"[-27.491714,152.91904,304.79999]","[-3.0862694,0.0,0.0]",61.73333359,0,4082.33137,11453.8345,11521.24631,red3,red,2
52,4,"[-27.492408,152.76198,304.79999]","[2.0447499,0.0,0.0]",61.73333359,0,4082.33137,11453.79126,11521.24631,red4,red,2
52,5,"[-27.445723,152.80853,304.79999]","[2.0332794,0.0,0.0]",61.73333359,0,4082.33137,11453.79126,11521.24631,red5,red,2
52,6,"[-27.517243,153.09259,304.79999]","[-1.8131842,0.0,0.0]",61.73333359,0,4082.33137,11453.79126,11521.24631,red6,red,2
52,7,"[-27.69878,152.89167,304.79999]","[0.0,0.0,0.0]",61.73333359,0,2267.961872,7672.481072,7711.070366,blue1,blue,2
52,8,"[-27.543606,152.70641,304.79999]","[1.3087466,0.0,0.0]",61.73333359,0,2267.961872,7672.499458,7711.070366,blue2,blue,2
53,1,"[-27.382202,153.05688,304.79999]","[-2.5111015,0.0,0.0]",61.73333359,0,4082.33137,11452.51567,11521.24631,red1,red,2
53,2,"[-27.218242,153.07018,304.79999]","[-3.0288976,0.0,0.0]",61.73333359,0,4082.33137,11452.53729,11521.24631,red2,red,2
53,3,"[-27.492271,152.919,304.79999]","[-3.0862691,0.0,0.0]",61.73333359,0,4082.33137,11452.53729,11521.24631,red3,red,2
53,4,"[-27.492662,152.76254,304.79999]","[2.0447455,0.0,0.0]",61.73333359,0,4082.33137,11452.49405,11521.24631,red4,red,2
53,5,"[-27.445972,152.80909,304.79999]","[2.033275,0.0,0.0]",61.73333359,0,4082.33137,11452.49405,11521.24631,red5,red,2
53,6,"[-27.517376,153.09199,304.79999]","[-1.8131794,0.0,0.0]",61.73333359,0,4082.33137,11452.49405,11521.24631,red6,red,2
53,7,"[-27.698222,152.89167,304.79999]","[0.0,0.0,0.0]",61.73333359,0,2267.961872,7671.73897,7711.070366,blue1,blue,2
53,8,"[-27.543461,152.70701,304.79999]","[1.3087418,0.0,0.0]",61.73333359,0,2267.961872,7671.757356,7711.070366,blue2,blue,2
54,1,"[-27.382653,153.05651,304.79999]","[-2.5110985,0.0,0.0]",61.73333359,0,4082.33137,11451.21846,11521.24631,red1,red,2
54,2,"[-27.218796,153.07011,304.79999]","[-3.0288971,0.0,0.0]",61.73333359,0,4082.33137,11451.24008,11521.24631,red2,red,2
54,3,"[-27.492828,152.91897,304.79999]","[-3.0862688,0.0,0.0]",61.73333359,0,4082.33137,11451.24008,11521.24631,red3,red,2
54,4,"[-27.492917,152.7631,304.79999]","[2.044741,0.0,0.0]",61.73333359,0,4082.33137,11451.19684,11521.24631,red4,red,2
54,5,"[-27.446221,152.80965,304.79999]","[2.0332705,0.0,0.0]",61.73333359,0,4082.33137,11451.19684,11521.24631,red5,red,2
54,6,"[-27.51751,153.09138,304.79999]","[-1.8131745,0.0,0.0]",61.73333359,0,4082.33137,11451.19684,11521.24631,red6,red,2
54,7,"[-27.697664,152.89167,304.79999]","[-2.7755681e-17,0.0,0.0]",61.73333359,0,2267.961872,7670.996869,7711.070366,blue1,blue,2
54,8,"[-27.543317,152.70762,304.79999]","[1.3087369,0.0,0.0]",61.73333359,0,2267.961872,7671.015254,7711.070366,blue2,blue,2
55,1,"[-27.383103,153.05614,304.79999]","[-2.5110956,0.0,0.0]",61.73333359,0,4082.33137,11449.92125,11521.24631,red1,red,2
55,2,"[-27.21935,153.07004,304.79999]","[-3.0288965,0.0,0.0]",61.73333359,0,4082.33137,11449.94287,11521.24631,red2,red,2
55,3,"[-27.493385,152.91893,304.79999]","[-3.0862685,0.0,0.0]",61.73333359,0,4082.33137,11449.94287,11521.24631,red3,red,2
55,4,"[-27.493171,152.76365,304.79999]","[2.0447365,0.0,0.0]",61.73333359,0,4082.33137,11449.89963,11521.24631,red4,red,2
55,5,"[-27.446469,152.81021,304.79999]","[2.033266,0.0,0.0]",61.73333359,0,4082.33137,11449.89963,11521.24631,red5,red,2
55,6,"[-27.517644,153.09077,304.79999]","[-1.8131696,0.0,0.0]",61.73333359,0,4082.33137,11449.89963,11521.24631,red6,red,2
55,7,"[-27.697107,152.89167,304.79999]","[0.0,0.0,0.0]",61.73333359,0,2267.961872,7670.254767,7711.070366,blue1,blue,2
55,8,"[-27.543172,152.70822,304.79999]","[1.3087321,0.0,0.0]",61.73333359,0,2267.961872,7670.273152,7711.070366,blue2,blue,2
56,1,"[-27.383553,153.05577,304.79999]","[-2.5110927,0.0,0.0]",61.73333359,0,4082.33137,11448.62403,11521.24631,red1,red,2
56,2,"[-27.219904,153.06997,304.79999]","[-3.028896,0.0,0.0]",61.73333359,0,4082.33137,11448.64565,11521.24631,red2,red,2
56,3,"[-27.493942,152.9189,304.79999]","[-3.0862682,0.0,0.0]",61.73333359,0,4082.33137,11448.64565,11521.24631,red3,red,2
56,4,"[-27.493426,152.76421,304.79999]","[2.0447321,0.0,0.0]",61.73333359,0,4082.33137,11448.60241,11521.24631,red4,red,2
56,5,"[-27.446718,152.81077,304.79999]","[2.0332615,0.0,0.0]",61.73333359,0,4082.33137,11448.60241,11521.24631,red5,red,2
56,6,"[-27.517778,153.09016,304.79999]","[-1.8131648,0.0,0.0]",61.73333359,0,4082.33137,11448.60241,11521.24631,red6,red,2
56,7,"[-27.696549,152.89167,304.79999]","[-2.7755681e-17,0.0,0.0]",61.73333359,0,2267.961872,7669.512665,7711.070366,blue1,blue,2
56,8,"[-27.543028,152.70883,304.79999]","[1.3087272,0.0,0.0]",61.73333359,0,2267.961872,7669.531051,7711.070366,blue2,blue,2
57,1,"[-27.384004,153.05541,304.79999]","[-2.5110897,0.0,0.0]",61.73333359,0,4082.33137,11447.32682,11521.24631,red1,red,2
57,2,"[-27.220459,153.0699,304.79999]","[-3.0288954,0.0,0.0]",61.73333359,0,4082.33137,11447.34844,11521.24631,red2,red,2
57,3,"[-27.494498,152.91886,304.79999]","[-3.086268,0.0,0.0]",61.73333359,0,4082.33137,11447.34844,11521.24631,red3,red,2
57,4,"[-27.49368,152.76477,304.79999]","[2.0447276,0.0,0.0]",61.73333359,0,4082.33137,11447.3052,11521.24631,red4,red,2
57,5,"[-27.446967,152.81133,304.79999]","[2.033257,0.0,0.0]",61.73333359,0,4082.33137,11447.3052,11521.24631,red5,red,2
57,6,"[-27.517912,153.08956,304.79999]","[-1.8131599,0.0,0.0]",61.73333359,0,4082.33137,11447.3052,11521.24631,red6,red,2
57,7,"[-27.695991,152.89167,304.79999]","[-2.7755681e-17,0.0,0.0]",61.73333359,0,2267.961872,7668.770563,7711.070366,blue1,blue,2
57,8,"[-27.542883,152.70943,304.79999]","[1.3087223,0.0,0.0]",61.73333359,0,2267.961872,7668.788949,7711.070366,blue2,blue,2
58,1,"[-27.384454,153.05504,304.79999]","[-2.5110868,0.0,0.0]",61.73333359,0,4082.33137,11446.02961,11521.24631,red1,red,2
58,2,"[-27.221013,153.06983,304.79999]","[-3.0288949,0.0,0.0]",61.73333359,0,4082.33137,11446.05123,11521.24631,red2,red,2
58,3,"[-27.495055,152.91883,304.79999]","[-3.0862677,0.0,0.0]",61.73333359,0,4082.33137,11446.05123,11521.24631,red3,red,2
58,4,"[-27.493935,152.76532,304.79999]","[2.0447232,0.0,0.0]",61.73333359,0,4082.33137,11446.00799,11521.24631,red4,red,2
58,5,"[-27.447216,152.81189,304.79999]","[2.0332526,0.0,0.0]",61.73333359,0,4082.33137,11446.00799,11521.24631,red5,red,2
58,6,"[-27.518046,153.08895,304.79999]","[-1.813155,0.0,0.0]",61.73333359,0,4082.33137,11446.00799,11521.24631,red6,red,2
58,7,"[-27.695434,152.89167,304.79999]","[2.7755681e-17,0.0,0.0]",61.73333359,0,2267.961872,7668.028461,7711.070366,blue1,blue,2
58,8,"[-27.542739,152.71004,304.79999]","[1.3087175,0.0,0.0]",61.73333359,0,2267.961872,7668.046847,7711.070366,blue2,blue,2
59,1,"[-27.384905,153.05467,304.79999]","[-2.5110838,0.0,0.0]",61.73333359,0,4082.33137,11444.7324,11521.24631,red1,red,2
59,2,"[-27.221567,153.06976,304.79999]","[-3.0288943,0.0,0.0]",61.73333359,0,4082.33137,11444.75402,11521.24631,red2,red,2
59,3,"[-27.495612,152.9188,304.79999]","[-3.0862674,0.0,0.0]",61.73333359,0,4082.33137,11444.75402,11521.24631,red3,red,2
59,4,"[-27.494189,152.76588,304.79999]","[2.0447187,0.0,0.0]",61.73333359,0,4082.33137,11444.71078,11521.24631,red4,red,2
59,5,"[-27.447465,152.81245,304.79999]","[2.0332481,0.0,0.0]",61.73333359,0,4082.33137,11444.71078,11521.24631,red5,red,2
59,6,"[-27.51818,153.08834,304.79999]","[-1.8131501,0.0,0.0]",61.73333359,0,4082.33137,11444.71078,11521.24631,red6,red,2
59,7,"[-27.694876,152.89167,304.79999]","[-2.7755681e-17,0.0,0.0]",61.73333359,0,2267.961872,7667.28636,7711.070366,blue1,blue,2
59,8,"[-27.542594,152.71064,304.79999]","[1.3087126,0.0,0.0]",61.73333359,0,2267.961872,7667.304745,7711.070366,blue2,blue,2
60,1,"[-27.385355,153.0543,304.79999]","[-2.5110809,0.0,0.0]",61.73333359,0,4082.33137,11443.43518,11521.24631,red1,red,2
60,2,"[-27.222121,153.06969,304.79999]","[-3.0288937,0.0,0.0]",61.73333359,0,4082.33137,11443.4568,11521.24631,red2,red,2
60,3,"[-27.496169,152.91876,304.79999]","[-3.0862671,0.0,0.0]",61.73333359,0,4082.33137,11443.4568,11521.24631,red3,red,2
